id,campbell_cloud_id,station_id,legacy_id,station_slug,station_name,latitude,longitude,elevation,location,station_timezone,city,county,region,state,earliest_api_date,madis_id,climate_division
47,be41f3c5-db40-4e77-9314-7b64a86bf0bd,ANGO,S0AY9458XB,antigo,Antigo,45.158901,-89.117798,461.0,Langlade County Airport,US/Central,Antigo,Langlade,Northeast,WI,2024-09-11,WIANT,Northeast
7,7a0eb3c4-bcaf-c4f7-c3d2-92e8a9da6b06,ALTN,SLR6NWDRE7,arlington,Arlington,43.2966,-89.3843,304.0,Arlington Agricultural Research Station,US/Central,Arlington,Columbia County,South Central,WI,2023-05-22,WIALT,South Central
45,2f187f9b-f4fa-d1ad-1123-75e3df29071b,RTHR,S2ELLV2D9Y,arthur,Arthur,45.032001,-91.199997,307.0,Not set,US/Central,Arthur,Chippewa,Northwest,WI,2024-08-28,WIRTR,Northwest
36,f45b6cc4-e520-48f8-e9c7-dd4c98579a8f,BBCK,SDHS0YT2M2,babcock,Babcock,44.253799,-90.268997,296.0,Amundson Cranberry Inc,US/Central,Babcock,Wood,Central,WI,2024-07-11,WIBBK,Central
74,,BYFD,,bayfield,Bayfield,46.8395,-91.013603,321.0,Happy Hollow Creamery,US/Central,Bayfield,Bayfield,Northwest,WI,2025-06-19,WIFYD,Northwest
31,bb5e5c3c-0a51-3958-3dff-6064a0c9b1f9,BLCR,SCQEZRKA6K,black_creek,Black Creek,44.481499,-88.405899,238.0,Fallen Timbers Environmental Center,US/Central,Black Creek,Outagamie,East Central,WI,2024-06-12,WIBLK,East Central
19,9f8a27d9-f8c6-6252-f611-1153cc105957,WCRS,SX7MLEE0G2,black_river_falls,Black River Falls,44.1852,-90.742798,262.0,Black River Falls,US/Central,Black River Falls,Jackson,West Central,WI,2023-10-18,WIBRF,West Central
82,,BCVL,,blanchardville,Blanchardville,42.85215,-89.754089,338.0,Trentway Genetics,US/Central,Blanchardville,Green,South Central,WI,2025-08-27,WIBCV,South Central
65,,BGHM,,brigham,Brigham,43.002998,-89.848503,366.0,Thomas Memorial Prairie,US/Central,Brigham,Iowa,Southwest,WI,2025-05-07,WIGHM,Southwest
30,9e167efb-fdd6-9ea7-5b88-4e5faeb80620,BRLN,SOVH4DPMII,brillion,Brillion,44.104,-88.051003,253.0,Dallmann East River Dairy LLC,US/Central,Brillion,Calumet,East Central,WI,2024-06-11,WIBLN,East Central
23,a81da783-454f-a278-f3f7-b82ba8265bfc,BSTL,S6HO1L6JBI,bristol,Bristol,42.570999,-88.044998,234.0,Kenosha County Center,US/Central,Bristol,Kenosha,Southeast,WI,2024-04-22,WIBTL,Southeast
50,5723db07-3283-67fb-2c8c-3c5a8fce23ec,BKLN,SWV1DQCEJF,brooklyn,Brooklyn,43.838001,-89.030403,271.0,Brooklyn,US/Central,Brooklyn,Green Lake,Central,WI,2024-09-25,WIBKN,Central
38,87b71cdc-06b1-fe6c-6721-a94b5021a9ae,CLLK,S21BCEXFYO,clear_lake,Clear Lake,45.285801,-92.321297,341.0,Bull Brook Keep,US/Central,Clear Lake,Polk,Northwest,WI,2024-07-17,WICLK,Northwest
21,26790b04-dbdc-b082-e995-1f25fe466a28,COSP,SKF58LYJ1S,cold_spring,Cold Spring,42.898701,-88.737198,241.0,Cold Spring,US/Central,Cold Spring,Jefferson,South Central,WI,2023-10-19,WICOS,South Central
57,b40ee906-2303-7a4d-2c32-287d980e2207,CNDN,S7DLA4NRNE,crandon,Crandon,45.522598,-88.923897,495.0,Crandon Municipal Airport,US/Central,Crandon,Forest,Northeast,WI,2024-10-23,WICDN,Northeast
81,,CVTZ,,crivitz,Crivitz,45.16864,-87.997787,212.0,Fiedorowicz Farms,US/Central,Crivitz,Marinette,Northeast,WI,2025-08-21,WICVT,Northeast
39,ced08fb1-544c-c6cd-e062-66e8d1aed8fb,CTLR,SN63FRIQH5,cutler,Cutler,44.026001,-90.255997,280.0,Cutler Cranberry,US/Central,Camp Douglas,Juneau,Central,WI,2024-07-16,WICTR,Central
69,,DLTN,,darlington,Darlington,42.649902,-90.289154,327.0,Darlington Ridge Dairy,US/Central,Darlington,Lafayette,Southwest,WI,2025-05-29,WILTN,Southwest
29,018c9f3f-b9ab-433a-f704-26b27fe7c17a,DEPR,SS6NJR993V,de_pere,De Pere,44.327999,-87.966003,275.0,Calf Source LLC,US/Central,De Pere,Brown,East Central,WI,2024-06-11,WIDPR,East Central
53,73287b85-5a7a-5a77-de5c-8ae3337aa562,DRND,SY37RUNT70,durand,Durand,44.627586,-91.939346,265.0,Farm on Dairy,US/Central,Durand,Pepin,West Central,WI,2024-10-09,WIDND,West Central
9,6ba81f7d-0769-71db-24b9-4b97b774a0a6,EGHA,S2P6D646U1,egg_harbor,Egg Harbor,45.0509,-87.259804,227.0,Egg Harbor,US/Central,Egg Harbor,Door,East Central,WI,2023-08-18,WIEHB,East Central
42,1ed8d839-4d74-c919-b0e1-57b076fe3f8e,FRCD,SL7G29O27W,fairchild,Fairchild,44.609001,-91.0,345.0,Fairchild,US/Central,Fairchild,Eau Claire,Northwest,WI,2024-08-06,WIFRC,West Central
80,,HDMK,,fence,Fence,45.755638,-88.563454,455.0,Hedmark State Natural Area,US/Central,Fence,Florence,Northeast,WI,2025-08-20,WIHDM,Northeast
72,,FLMB,,flambeau,Flambeau,45.775398,-90.643097,447.0,We Grow Foods,US/Central,Flambeau,Price,North Central,WI,2025-06-18,WILMB,North Central
79,,GLSN,,gleason,Gleason,45.302132,-89.50415,446.0,Huhta Homestead,US/Central,Gleason,Lincoln,North Central,WI,2025-08-20,WIGLS,North Central
32,ba5aed7c-a3c0-32ca-8a70-106f10eaa45c,GFTN,SCRF14YQBZ,grafton,Grafton,43.2981,-87.932098,218.0,Grafton Little League,US/Central,Grafton,Ozaukee,East Central,WI,2024-06-18,WIGTN,Southeast
70,,GMSH,,grand_marsh,Grand Marsh,43.854332,-89.777641,296.0,Alsum Farms,US/Central,Grand Marsh,Adams,Central,WI,2025-06-12,WIGMS,Central
78,,CREX,,grantsburg,Grantsburg,45.884548,-92.609062,290.0,Crex Meadows Wildlife Refuge,US/Central,Grantsburg,Burnett,Northwest,WI,2025-07-03,WIREX,Northwest
20,7910093b-bebb-3671-ed9a-6955be87b585,GNWD,SPB6FKYDR6,greenwood,Greenwood,44.717999,-90.596603,361.0,Greenwood,US/Central,Greenwood,Clark,North Central,WI,2023-10-17,WIGWD,North Central
1,869f0010-74ab-3333-1231-059899654bff,HNCK,SASGYVS2EV,hancock,Hancock,44.118801,-89.533302,333.0,Not set,US/Central,Hancock,Waushara County,Central,WI,2023-02-02,WIHCK,Central
76,,HRVR,,hay_river,Hay River,45.084621,-91.919167,317.0,Blue Ox Farm,US/Central,Hay River,Dunn,West Central,WI,2025-07-02,WIHRV,West Central
73,,HNTR,,hunter,Hunter,45.946201,-91.094704,422.0,Little Cranberry Lake,US/Central,Hunter,Sawyer,Northwest,WI,2025-06-18,WINTR,Northwest
55,acf3a033-72f6-db4f-d05e-579bf048d930,IOLA,SIXLY2ZRR6,iola,Iola,44.504025,-89.024918,267.0,Central County Airport,US/Central,Iola,Waupaca,Central,WI,2024-10-15,WIOLA,Central
33,51dd93a4-c5e8-72b8-c4bd-3ad9533cb150,KSKM,S359Q2YKGT,kewaskum,Kewaskum,43.535099,-88.252701,313.0,Blind Cow Dairy,US/Central,Kewaskum,Washington,East Central,WI,2024-06-20,WIKWK,Southeast
15,efb349d0-9aae-8c78-c8d2-ec7e34b46090,KWNE,SF8AG6HVUQ,kewaunee,Kewaunee,44.401798,-87.664597,227.0,Kewaunee,US/Central,Kewaunee,Kewaunee,East Central,WI,2023-08-24,WIKWS,East Central
41,72e76b04-2c37-b3cc-c749-db802a2c8b94,KNGT,SEC4G4MK3W,knight,Knight,46.289001,-90.435997,511.0,Crawford Road Gravel Pit,US/Central,Knight,Iron,North Central,WI,2024-07-25,WIKGT,North Central
24,52a41fb5-73fe-69a3-c8cd-3dd3c08088c1,LAFG,SUCV0B72P6,la_farge,La Farge,43.597,-90.625999,269.0,Kickapoo Valley Reserve Visitor Center,US/Central,La Farge,Vernon,Western,WI,2024-05-31,WILFG,Southwest
3,06ac93bb-6ec6-ade4-bb5d-e960a8475159,LNCT,ST66CXQN1I,lancaster,Lancaster,42.830002,-90.7882,318.0,Not set,US/Central,Lancaster,Grant County,Southwest,WI,2023-02-09,WILCT,Southwest
62,,LOLK,,lost_lake,Lost Lake,43.451145,-88.977783,287.0,Macheel Farms,US/Central,Lost Lake,Dodge,South Central,WI,2025-04-23,WIOLK,South Central
8,4283affc-a369-5643-3086-f80f9b206b37,LXBG,S5HSIPFFDD,luxemburg,Luxemburg,44.556,-87.654297,217.0,Casco,US/Central,Casco,Kewaunee,East Central,WI,2023-08-24,WILUX,East Central
40,cc883a41-a799-e25f-e59c-9ef322505e3b,MNWT,SHLRW18WKI,manitowish_waters,Manitowish Waters,46.076,-89.838303,492.0,Bartling&apos;s Manitowish Cranberry Company,US/Central,Manitowish Waters,Vilas,North Central,WI,2024-07-24,WIMNW,North Central
52,9665a937-729e-5404-203e-759b6b36f96b,MAPL,S46IH3ZJWV,maple,Maple,46.632702,-91.681198,278.0,Anderson Farm,US/Central,Maple,Douglas,Northwest,WI,2024-10-01,WIMPL,Northwest
5,d4870546-4cb5-524f-4fb1-8bb6b53c9178,MRFD,SXB7VAXY29,marshfield,Marshfield,44.7603,-90.097801,398.0,Not set,US/Central,Marshfield,Marathon County,North Central,WI,2023-02-02,WIMAR,North Central
75,,MNDR,,mindoro,Mindoro,44.030289,-90.934776,423.0,Campbell Family of La Crosse LLC,US/Central,Mindoro,La Crosse,West Central,WI,2025-07-01,WINDR,West Central
54,d5039725-17f2-7227-2269-00f6a7855bb9,MNTN,SFXCQORX9X,montana,Montana,44.401226,-91.559906,410.0,Bragger Family Dairy,US/Central,Montana,Buffalo,West Central,WI,2024-10-10,WIMNT,West Central
49,b050294d-e335-7064-51f2-005df56c472a,MTLO,SREAY70R5R,montello,Montello,43.853901,-89.283798,257.0,Zeb Zuehls Farm,US/Central,Montello,Marquette,Central,WI,2024-09-24,WIMTL,Central
14,f3ac3c85-4aac-cea0-afa9-5079c1ebc5d1,NASE,S3BWGDUFEO,nasewaupee,Nasewaupee,44.789398,-87.4561,225.0,Nasewaupee,US/Central,Nasewaupee,Door,East Central,WI,2023-08-17,WINSW,East Central
37,d7a2a984-463a-8596-01e5-d2a6cea25e9c,NBLN,SF9Z7CQYA7,new_berlin,New Berlin,42.976002,-88.120003,287.0,New Berlin City Hall,US/Central,New Berlin,Waukesha,Southeast,WI,2024-07-12,WINBL,Southeast
43,05bc8adb-e5b0-ac34-d043-dfd2e1e211d3,OSEO,SUBISX680X,osseo,Osseo,44.59,-91.265999,324.0,Osseo,US/Central,Osseo,Trempealeau,West Central,WI,2024-08-07,WIOSO,West Central
34,d510b318-62d7-aa43-67ae-504317b6b2d4,FFEC,SPR5XBGOVU,plover,Plover,44.446098,-89.520699,331.0,Food and Farm Exploration Center,US/Central,Plover,Portage,Central,WI,2024-06-26,WIPVR,Central
60,ca7deac8-b65f-64b2-7b28-91158588c7d8,PLYM,SJ6O6MNCU2,plymouth,Plymouth,43.777199,-87.9515,252.0,Nick Kleiber Grain,US/Central,Plymouth,Sheboygan,East Central,WI,2024-10-30,WIPLM,East Central
26,6dd9c7fe-9575-bf9c-85ed-8ef746caf88c,GLCP,S9QOXH4W8Z,porter,Porter,42.789001,-89.172997,282.0,Gibbs Lake County Park,US/Central,Porter,Rock,Southern,WI,2024-05-23,WIPTR,South Central
18,1f29af07-9583-9de5-47d8-e15b027d41ce,DFRC,S864RV5JT0,prairie_du_sac,Prairie du Sac,43.344799,-89.7117,258.0,Prairie du Sac,US/Central,Prairie du Sac,Sauk,Southwest,WI,2023-09-28,WIPSC,Southwest
2,1a4dbbf4-457e-48cb-17ff-5707f4d651e7,RNLD,SKVJ7WMFRP,rhinelander,Rhinelander,45.654598,-89.268204,488.0,Not set,US/Central,Rhinelander,Oneida County,North Central,WI,2023-02-02,WIRHN,North Central
77,,RLKE,,rice_lake,Rice Lake,45.523331,-91.844292,410.0,Meissner Cattle,US/Central,Rice Lake,Barron,Northwest,WI,2025-07-02,WILKE,Northwest
27,f0f5f082-3718-3140-cd56-3fa798760094,RCHD,SQ60X8ITCS,richland_center,Richland Center,43.369999,-90.383003,239.0,Richland County Highway Department,US/Central,Richland Center,Richland,Southern,WI,2024-05-30,WIRDC,Southwest
28,03def203-da4a-de81-513c-f93e4c3b1be2,RIPN,SLKBWBA34X,ripon,Ripon,43.905602,-88.846703,259.0,Vines and Rushes Winery,US/Central,Ripon,Winnebago,East Central,WI,2024-06-10,WIRPN,East Central
71,,UWRF,,river_falls,River Falls,44.842499,-92.6129,281.0,UW-River Falls Horse Farm,US/Central,River Falls,Pierce,West Central,WI,2025-06-17,WIWRF,West Central
68,,SHGD,,shanagolden,Shanagolden,46.10701,-90.80793,454.0,East Flambeau Dream Site,US/Central,Shanagolden,Ashland,North Central,WI,2025-05-28,WIHGD,North Central
11,6e1a24b7-57d3-353f-4e49-51ba8c1d1ada,SIBA,SBMBAZGNYY,sister_bay,Sister Bay,45.219101,-87.0662,212.0,Sister Bay,US/Central,Sister Bay,Door,East Central,WI,2023-08-18,WISRB,East Central
48,1bf2d1e5-58f4-4fa2-d906-ff3b10f7b8d1,STAR,SLCZZFSUVX,soldiers_grove,Soldiers Grove,43.378399,-90.900002,355.0,Star Valley Flowers,US/Central,Soldiers Grove,Crawford,Southwest,WI,2024-09-12,WISDG,Southwest
51,6197ce99-389e-74e4-00bb-c5f207df9d54,SMKE,S9GYM95LWZ,south_milwaukee,South Milwaukee,42.901299,-87.851196,196.0,South Milwaukee Wastewater Treatment Plant,US/Central,South Milwaukee,Milwaukee,Southeast,WI,2024-09-27,WISMI,Southeast
10,620e4b8f-0057-716b-bcfb-95665eb03803,SODO,S0O7S5BUXF,southern_door,Southern Door,44.778999,-87.355598,212.0,Sturgeon Bay,US/Central,Sturgeon Bay,Door,East Central,WI,2023-08-17,WISDR,East Central
4,f0eccf6e-b561-fe08-4ffc-3c4a612174d6,SPNR,SGQXIS2977,spooner,Spooner,45.827,-91.861397,333.0,Not set,US/Central,Spooner,Washburn County,Northwest,WI,2023-02-09,WIPNR,Northwest
13,81c259ae-fcb1-b577-ce46-9e4355a5e00d,PARS,S32S795MCD,sturgeon_bay,Sturgeon Bay,44.880199,-87.329597,220.0,Sturgeon Bay,US/Central,Sturgeon Bay,Door,East Central,WI,2023-08-17,WISTB,East Central
56,643c7f23-0da6-2fa9-0c47-9f73b588ce49,SRNG,SCX0KN548O,suring,Suring,44.999001,-88.342697,257.0,Mahoney Farms,US/Central,Suring,Oconto,Northeast,WI,2024-10-22,WISNG,Northeast
64,,TCDA,,taycheedah,Taycheedah,43.84317,-88.370872,258.0,Park Ridge Organics,US/Central,Taycheedah,Fond du Lac,East Central,WI,2025-04-23,WICDA,East Central
59,e9185d9d-e0e4-0e4e-f956-8cd9b7431791,VLDR,SWX29T79PF,valders,Valders,44.004398,-87.8228,247.0,Libertyland Farms,US/Central,Valders,Manitowoc,East Central,WI,2024-10-29,WIVLR,East Central
17,5ca8b08c-5fe1-54aa-1a24-495e6e4ee82f,OJNR,SZ9NKURYCM,verona,Verona,43.025002,-89.536697,309.0,Verona,US/Central,Verona,Dane,South Central,WI,2023-09-28,WIVRN,South Central
25,57813f10-a996-c955-0dfa-ded39e0fd047,DUDA,SEPQFBCBK1,walworth,Walworth,42.527,-88.639999,292.0,Blooming Duda&apos;s Flower Farm,US/Central,Walworth,Walworth,Southeast,WI,2024-05-22,WIWLH,Southeast
35,eb075039-5c1b-424b-1d24-b8c1be652a12,WRNS,S7PFJRZ6AL,warrens,Warrens,44.116699,-90.412102,288.0,Weatherby Cranberry Company,US/Central,Warrens,Monroe,West Central,WI,2024-07-01,WIWRN,West Central
12,4e94b407-26d9-a0a8-4770-d7afd5403660,WJPT,SPBFD11X7A,west_jacksonport,West Jacksonport,45.009998,-87.233498,220.0,West Jacksonport,US/Central,West Jacksonport,Door,East Central,WI,2023-08-18,WIWJP,East Central
67,,WBRO,,westboro,Westboro,45.31929,-90.355469,506.0,We Grow Foods,US/Central,westboro,Taylor,North Central,WI,2025-05-13,WIBRO,North Central
83,,WKSN,,wilkinson,Wilkinson,45.508121,-91.459503,462.0,Rusk County Highway Department,US/Central,Wilkinson,Rusk,Northwest,WI,2025-08-28,WIWKS,Northwest
58,3ebd88b9-e7aa-8466-aa6a-013187670eb2,WTBG,SCWRLMUIXM,wittenberg,Wittenberg,44.866001,-89.023552,346.0,Strassburg Creek Dairy,US/Central,Wittenberg,Shawano,Northeast,WI,2024-10-23,WITBG,Northeast
16,bef6d2f3-3f53-e50b-9b5c-7704f38f57d5,KEMP,S8QF327ICS,woodruff,Woodruff,45.841,-89.667801,492.0,Woodruff,US/Central,Woodruff,Oneida County,North Central,WI,2023-09-27,WIWDF,North Central
44,d0d24c6f-9b7d-9364-c0d1-1168ff05b3b3,WDVL,S9KLFJCB0P,woodville,Woodville,44.943001,-92.287003,347.0,Viking Middle School,US/Central,Woodville,St. Croix,West Central,WI,2024-08-27,WIDVL,West Central
46,efc9f1be-18df-1738-6098-6d035cc3544f,UGRV,S355RGMPET,yorkville,Yorkville,42.7281,-88.028,226.0,Racine Astronomical Society,US/Central,Union Grove,Racine,Southeast,WI,2024-09-05,WIUGR,Southeast
